id,City,Country,Station_Id,Station_Name,Latitude,Longitude,Timestamp,Total_Available_Slots,Total_Available_Free_Bikes,Total_Available_EBikes,Total_Available_Normal_Bikes,Total_Available_Empty_Slots
1,Vancouver,CA,7a19c49f486d7c0c02b3685d7b240448,10th & Cambie,49.262487,-123.114397,2023-12-17T22:12:48.876000Z,36,29,1,28,5
1,Vancouver,CA,32603a87cfca71d0f7dfa3513bad69d5,Yaletown-Roundhouse Station,49.274566,-123.121817,2023-12-17T22:12:48.865000Z,16,12,4,8,4
1,Vancouver,CA,6d42fa40360f9a6b2bf641c7b8bb2862,Dunsmuir & Beatty,49.279764,-123.110154,2023-12-17T22:12:48.866000Z,26,18,3,15,8
1,Vancouver,CA,66f873d641d448bd1572ab086665a458,12th & Yukon (City Hall),49.260599,-123.113504,2023-12-17T22:12:48.867000Z,16,8,5,3,8
1,Vancouver,CA,485d4d24c803cfde829ab89699fed833,8th & Ash,49.264215,-123.117772,2023-12-17T22:12:48.886000Z,16,11,7,4,4
1,Vancouver,CA,b07d513f87897cff7319a0e59d7e567c,Spyglass & Seawall,49.270877,-123.115103,2023-12-17T22:12:48.887000Z,14,11,1,10,2
1,Vancouver,CA,d1c9556d92f329703229fb3e33899a3b,Stamps Landing,49.26893,-123.11813,2023-12-17T22:12:48.976000Z,14,11,2,9,3
1,Vancouver,CA,95e624191c655f50e401d280cd39a9ad,Ontario & Seawall,49.271721,-123.104207,2023-12-17T22:12:48.971000Z,20,7,2,5,13
1,Vancouver,CA,3e112f9fe877e0003780386359060ae6,Canada Place,49.287214,-123.11287,2023-12-17T22:12:48.968000Z,26,12,6,6,14
1,Vancouver,CA,6993b3dbb0758927967592ea612a2b1e,Granville & Georgia,49.282409,-123.118541,2023-12-17T22:12:48.966000Z,20,6,0,6,13
1,Vancouver,CA,bf8408067b0e0c963f3ff526977bcef3,Pender & Burrard,49.287097,-123.118551,2023-12-17T22:12:48.965000Z,26,16,0,16,9
1,Vancouver,CA,d2244f1a81d317c76cabd65e81250835,Marinaside & Davie,49.273471,-123.118016,2023-12-17T22:12:48.957000Z,22,22,3,19,0
1,Vancouver,CA,0b543fc4e694fe07a54dac48bb1b3390,Robson & Hornby,49.282758,-123.122092,2023-12-17T22:12:48.997000Z,30,16,0,16,14
1,Vancouver,CA,fbb1d30d7f30b049873f5be5688563d4,Hornby & Pender,49.28602,-123.116624,2023-12-17T22:12:49.204000Z,22,9,4,5,13
1,Vancouver,CA,7181df50ee1d1a05559399211382b7c8,Homer & Robson (Vancouver Public Library),49.279739,-123.116251,2023-12-17T22:12:49.224000Z,20,3,1,2,17
1,Vancouver,CA,b7683a86874e6300fd89f4cc0b075f57,Beatty & Nelson,49.275679,-123.116963,2023-12-17T22:12:49.192000Z,14,3,0,3,11
1,Vancouver,CA,3367c1e1dbf73caf7c10e4c96a92f58d,Abbott & Cordova,49.282759,-123.106955,2023-12-17T22:12:48.389000Z,22,11,1,10,11
1,Vancouver,CA,1d7e73b3321ebb6713774d376247d9f9,Comox & Denman,49.288444,-123.139203,2023-12-17T22:12:48.395000Z,18,18,3,15,0
1,Vancouver,CA,664502c28e8147615f17b8ea355f40d0,Cordova & Bute,49.289124,-123.12196,2023-12-17T22:12:48.376000Z,14,14,3,11,0
1,Vancouver,CA,6c24a62b5ee0a2a8014eb0dfb6d40025,Hornby & Nelson,49.28062,-123.12482,2023-12-17T22:12:48.378000Z,18,3,0,3,15
1,Vancouver,CA,fad9ebcf614dd1a72593a34072ff76f8,Helmcken & Burrard,49.279938,-123.127478,2023-12-17T22:12:48.359000Z,15,3,0,3,11
1,Vancouver,CA,3a4131fa94946d93d3529136efd62413,Pacific & Richards,49.273663,-123.127075,2023-12-17T22:12:48.464000Z,14,5,2,3,9
1,Vancouver,CA,25318ec3e06fae1397a3a2f645104149,Chilco & Beach,49.28972,-123.144028,2023-12-17T22:12:48.480000Z,14,12,2,10,1
1,Vancouver,CA,444991edc9550be0908f032da5e3c95f,Comox & Broughton,49.285253,-123.134356,2023-12-17T22:12:48.444000Z,12,4,0,4,8
1,Vancouver,CA,434b6f4e7fc30198f901b60fc905f609,Bute & Comox,49.283343,-123.131099,2023-12-17T22:12:48.533000Z,22,12,0,12,10
1,Vancouver,CA,f97d5bf41f35aa181288429fb52e3488,Cambie & Water,49.284605,-123.108662,2023-12-17T22:12:48.532000Z,32,10,0,10,22
1,Vancouver,CA,fef69fb400210d861107a61db954d037,Keefer & Abbott,49.279821,-123.10802,2023-12-17T22:12:48.530000Z,28,21,3,18,7
1,Vancouver,CA,9d3123425823420514b8ad410074f02d,Expo & Carrall,49.278004,-123.105664,2023-12-17T22:12:48.538000Z,16,14,2,12,2
1,Vancouver,CA,f1ca711137cde59e824167a4274df888,Keefer & Columbia,49.279342,-123.101822,2023-12-17T22:12:48.536000Z,14,10,0,10,4
1,Vancouver,CA,4f6ebf2026d540ffe40e29a80138ad5e,Marinaside & Cooperage,49.273833,-123.114373,2023-12-17T22:12:48.535000Z,26,19,0,19,7
1,Vancouver,CA,be14efdc86dedd6a8cd338e78ab4e7c7,Bidwell & Burnaby,49.28526,-123.141809,2023-12-17T22:12:48.860000Z,26,0,0,0,26
1,Vancouver,CA,6ddeafa873279951630a00191333c45d,Robson & Granville,49.281506,-123.120101,2023-12-17T22:12:48.836000Z,26,16,1,15,10
1,Vancouver,CA,c7b5bec0b2f4ab9a2d3f9d837725620c,Expo & Smithe,49.276115,-123.114496,2023-12-17T22:12:48.804000Z,14,13,3,10,1
1,Vancouver,CA,b9fd847d53fe45658fee4c46e7f562b8,Cypress & Cornwall,49.272827,-123.147744,2023-12-17T22:12:48.824000Z,22,18,3,15,3
1,Vancouver,CA,c2be5403b1c101e8032cf6696457200e,Anderson & 2nd,49.269361,-123.13782,2023-12-17T22:12:48.796000Z,28,14,1,13,14
1,Vancouver,CA,71c064fa93cab5f0b7306e6c923b77c4,7th & Granville,49.2653,-123.13811,2023-12-17T22:12:48.864000Z,14,2,0,2,12
1,Vancouver,CA,96bf713e60bc35cc2feb5fd53a4f3471,10th & Granville,49.262598,-123.138921,2023-12-17T22:12:48.921000Z,14,3,1,2,11
1,Vancouver,CA,8dc684732a2a25bdf63ec0ecccee4e6e,14th & Granville,49.25894,-123.139272,2023-12-17T22:12:48.909000Z,14,4,2,2,8
1,Vancouver,CA,686c0fdb962e26e274d81fc286c010dd,14th & Cambie,49.258763,-123.115392,2023-12-17T22:12:48.931000Z,14,2,1,1,12
1,Vancouver,CA,0cf6cd1809fa7f510812f5b052f578c4,Ontario & 5th,49.266724,-123.104824,2023-12-17T22:12:48.930000Z,20,10,0,10,10
1,Vancouver,CA,93c88a18c673e2c72a6afa93d6b89f18,10th & Main,49.262141,-123.101961,2023-12-17T22:12:48.938000Z,18,9,0,9,9
1,Vancouver,CA,8fb5ce1e34ad31de940481953aea452c,Cypress & 4th,49.268269,-123.147885,2023-12-17T22:12:48.944000Z,18,7,0,7,10
1,Vancouver,CA,aa704bfba40286bd0661b64d1f75e778,Vanier Park,49.275717,-123.142564,2023-12-17T22:12:48.939000Z,28,15,0,15,13
1,Vancouver,CA,8c9ea7f2132376859ef34fab981d6932,Nelson & Mainland,49.276436,-123.11877,2023-12-17T22:12:48.947000Z,20,5,4,1,15
1,Vancouver,CA,1d4153659a0a0a2089078c739df6737d,Nelson & Richards,49.277844,-123.120942,2023-12-17T22:12:48.946000Z,18,4,4,0,14
1,Vancouver,CA,fbb4c06b719596c21f91fd51ef6d4710,7th & Heather,49.265089,-123.119425,2023-12-17T22:12:49.030000Z,18,13,1,12,2
1,Vancouver,CA,72c1049dfbbde7c24ec45c14f1a5ee85,Harwood & Bute,49.28026,-123.135244,2023-12-17T22:12:49.021000Z,20,5,2,3,15
1,Vancouver,CA,00fa94ad698dc4a9e4d708d6fd32f294,Chilco & Barclay,49.291909,-123.140713,2023-12-17T22:12:49.410000Z,18,17,0,17,1
1,Vancouver,CA,efa947b901a2cf85b58320b3ad26a2fe,Chilco & Robson,49.293257,-123.138563,2023-12-17T22:12:49.409000Z,16,5,1,4,11
1,Vancouver,CA,66a53e9c32e4f5c724f9478240020142,Nicola & Robson,49.288011,-123.132006,2023-12-17T22:12:49.407000Z,18,2,0,2,16
1,Vancouver,CA,97b25faf822b93fdbf72da1d594c0288,Carrall & Hastings,49.28117,-123.104419,2023-12-17T22:12:49.405000Z,18,13,0,13,4
1,Vancouver,CA,6c7fb9043e6df5a4cc50404581a947b9,šxʷƛ̓ənəq Xwtl'e7énḵ Square - Vancouver Art Gallery,49.283227,-123.120523,2023-12-17T22:12:49.404000Z,28,7,1,6,21
1,Vancouver,CA,30bf49544b1c864688b78172d42cca5e,Stanley Park - Vancouver Aquarium,49.299292,-123.130281,2023-12-17T22:12:48.690000Z,16,1,0,1,15
1,Vancouver,CA,9f63cebac9073eac3e90be2b9a91b02b,Stanley Park - Second Beach North,49.29534,-123.150433,2023-12-17T22:12:48.691000Z,16,10,2,8,6
1,Vancouver,CA,9aa325529164ec68b4d96c4f1c4fc7c1,Stanley Park - Second Beach South,49.294318,-123.148808,2023-12-17T22:12:48.679000Z,18,8,3,5,10
1,Vancouver,CA,e3d32ad772a5898c3b96c4d23d2cd542,Stanley Park - Totem Poles,49.298657,-123.121176,2023-12-17T22:12:48.678000Z,20,9,4,5,10
1,Vancouver,CA,625a2ad202275c8e2be3ce868e85b105,Heather & 14th,49.259183,-123.120126,2023-12-17T22:12:48.689000Z,16,2,0,2,12
1,Vancouver,CA,6c0de983fb47a3439a9e3c36a3d15804,8th & Ontario,49.263837,-123.105173,2023-12-17T22:12:48.680000Z,16,6,4,2,9
1,Vancouver,CA,92c9e62c0b42adf4759c430009d3987a,1st & Chestnut,49.270721,-123.146175,2023-12-17T22:12:48.677000Z,26,10,1,9,16
1,Vancouver,CA,51e4d3731aebbf9c3186f310a08de6c8,7th & Arbutus,49.265605,-123.152566,2023-12-17T22:12:48.676000Z,16,1,1,0,14
1,Vancouver,CA,826af7eee4ce28b6fa4b4f0211305792,5th & Arbutus,49.267222,-123.153157,2023-12-17T22:12:48.512000Z,16,1,0,1,12
1,Vancouver,CA,4cb84c9a3743287019ae00ceef9a1cd3,10th & Oak,49.262255,-123.126217,2023-12-17T22:12:48.509000Z,30,1,1,0,24
1,Vancouver,CA,56fef9ba0af67a4ff3e661a8e02c0b08,Arbutus & 16th,49.257654,-123.153212,2023-12-17T22:12:48.511000Z,40,20,6,14,20
1,Vancouver,CA,c81f75a80312c51ceaef1304beac1990,Cypress & 14th,49.25919,-123.148268,2023-12-17T22:12:48.524000Z,12,5,0,5,7
1,Vancouver,CA,afacb2133f2462aba7748cc21b71c788,Cypress & 16th,49.25741,-123.148531,2023-12-17T22:12:48.529000Z,12,6,1,5,6
1,Vancouver,CA,a9f0b06d07f89b75e92c0cf686223aea,Georgia & Thurlow,49.285953,-123.124066,2023-12-17T22:12:48.452000Z,12,7,5,2,4
1,Vancouver,CA,686b314a6c3348efd2297d6b3dfed1a7,Thurlow & Pendrell,49.280881,-123.130672,2023-12-17T22:12:48.449000Z,16,7,1,6,9
1,Vancouver,CA,0d1b5c62f8d22e3650811df55596e25b,Heather & 16th,49.256845,-123.120071,2023-12-17T22:12:48.408000Z,12,2,1,1,10
1,Vancouver,CA,521c2122c791ed038168c3b8ff24061b,14th & Ontario,49.25849,-123.104799,2023-12-17T22:12:48.365000Z,16,1,1,0,12
1,Vancouver,CA,838d5bb59963474ad08a6d5b156943ed,14th & Main,49.258425,-123.100792,2023-12-17T22:12:48.333000Z,14,0,0,0,14
1,Vancouver,CA,b9ab6ce009eda6006ade1d7568d9db9c,David Lam Park,49.270905,-123.126006,2023-12-17T22:12:48.357000Z,18,11,0,11,7
1,Vancouver,CA,9ec4163496363b31ab475cb851b57b21,Beach & Seymour,49.273568,-123.129935,2023-12-17T22:12:48.358000Z,18,16,1,15,2
1,Vancouver,CA,fedff7a263c182df94bda7307059cc52,Richards & Helmcken,49.277141,-123.122589,2023-12-17T22:12:49.344000Z,18,2,2,0,14
1,Vancouver,CA,b9baf685b7053de899bf3467f61c2781,Burrard & 4th,49.267859,-123.145782,2023-12-17T22:12:49.397000Z,16,10,1,9,6
1,Vancouver,CA,8d6f0cbf7d44d2908c8ce73ed00dbf66,Burrard & 7th,49.265336,-123.145823,2023-12-17T22:12:48.413000Z,16,11,2,9,5
1,Vancouver,CA,988f8f74c4a12d1a30ddf2f7cd6318f8,South False Creek Seawall,49.267628,-123.127698,2023-12-17T22:12:48.415000Z,14,12,1,11,2
1,Vancouver,CA,2f09a64507cf6257c67ca20af27339eb,Chestnut & McNicoll,49.275938,-123.145939,2023-12-17T22:12:48.428000Z,16,14,4,10,2
1,Vancouver,CA,73f388336d879bedc962cd412eb0296e,Creekside Park North,49.2756,-123.102661,2023-12-17T22:12:48.433000Z,19,11,1,10,8
1,Vancouver,CA,cb6fddfdac7d350d25be475c7ab9e05a,Alexander & Main,49.284157,-123.099917,2023-12-17T22:12:49.009000Z,20,10,1,9,10
1,Vancouver,CA,cadc004f0903ef45e898032143c0832f,Arbutus Greenway & 14th,49.258924,-123.152591,2023-12-17T22:12:49.402000Z,20,6,2,4,13
1,Vancouver,CA,57e928d8c30fab0ebffb3ede850f89d6,Arbutus Greenway & Fir,49.266774,-123.141135,2023-12-17T22:12:49.403000Z,16,15,3,12,1
1,Vancouver,CA,6526a2eb3832f9ba0224d237e901ea5b,Kitsilano Beach Park,49.273355,-123.154493,2023-12-17T22:12:49.399000Z,36,23,3,20,13
1,Vancouver,CA,e44c2235dd603dbee54fe08f7543e85a,Arbutus & McNicoll,49.276144,-123.151272,2023-12-17T22:12:49.401000Z,30,17,7,10,13
1,Vancouver,CA,3596b4831ee2ea7812de753b32306835,Vine & 4th,49.268339,-123.157443,2023-12-17T22:12:49.412000Z,18,9,3,6,8
1,Vancouver,CA,c448b73d92f7f8e1daafb3b9c5fbe6a6,Alexander & Dunlevy,49.284062,-123.095097,2023-12-17T22:12:48.880000Z,14,8,2,6,6
1,Vancouver,CA,5fc29e0ac42c11abb45bf12aaeb925bd,Alder & 11th,49.261742,-123.13148,2023-12-17T22:12:49.360000Z,14,2,2,0,11
1,Vancouver,CA,61901a235d4cfceb7f8f2c3888b98617,10th & Columbia,49.262206,-123.109091,2023-12-17T22:12:48.736000Z,14,6,2,4,8
1,Vancouver,CA,175a074bf65455d1633639511dc129c8,1st & Manitoba,49.27023,-123.10651,2023-12-17T22:12:48.743000Z,28,24,9,15,2
1,Vancouver,CA,35eb539fb9298bb7e4f6759ca0256505,10th & Ontario,49.262062,-123.104656,2023-12-17T22:12:48.744000Z,20,5,2,3,15
1,Vancouver,CA,7b8dfa12900bcb02b47a14e4e5010ba3,Quebec & 1st,49.27033,-123.10275,2023-12-17T22:12:48.744000Z,18,15,3,12,3
1,Vancouver,CA,b30ed0719dd281867a4d39779c78b58a,Columbia & 14th,49.258902,-123.109596,2023-12-17T22:12:48.757000Z,14,9,0,9,5
1,Vancouver,CA,ace20c241ee38643c9060f290b215b9d,7th & Laurel,49.265071,-123.123864,2023-12-17T22:12:48.721000Z,14,3,1,2,11
1,Vancouver,CA,3aed670ccdcd94b966c0f505f8b028c7,7th &  Alder,49.265198,-123.131043,2023-12-17T22:12:48.713000Z,16,5,2,3,11
1,Vancouver,CA,ae69aeab748d02e5a7d89da28a1a8511,Science World,49.273691,-123.102232,2023-12-17T22:12:48.714000Z,16,3,0,3,13
1,Vancouver,CA,0c9ad3e3703e5869b82619ecdf54f43e,1st & Scotia,49.2685027,-123.0975014,2023-12-17T22:12:48.723000Z,20,4,0,4,16
1,Vancouver,CA,f3708906ec71348f5a42579fede36a0d,Rogers Tower,49.288682,-123.11818,2023-12-17T22:12:48.633000Z,18,8,3,5,10
1,Vancouver,CA,9449a6a83fbf88452e384350e5ac95b7,York & Yew,49.271741,-123.155421,2023-12-17T22:12:48.612000Z,20,7,0,7,11
1,Vancouver,CA,365da33e9ce06ea53db1173a0f8eae71,Pine & 10th,49.262822,-123.14338,2023-12-17T22:12:48.614000Z,20,0,0,0,20
1,Vancouver,CA,707c1c54e0278fbae5d0ae3c42a25b71,8th & Scotia,49.263635,-123.099236,2023-12-17T22:12:48.591000Z,12,5,1,4,7
1,Vancouver,CA,5105df3dd0daf4c26980f4134f61e5cc,Alberni & Jervis,49.28763,-123.127245,2023-12-17T22:12:48.600000Z,20,8,2,6,11
1,Vancouver,CA,82c794442f54fabf9db6e392ca1fac0f,Stanley Park - Information Booth,49.297933,-123.130758,2023-12-17T22:12:48.672000Z,20,2,1,1,18
1,Vancouver,CA,2ca388bba54706770900ca2a9d7aa5be,14th & Alder,49.258819,-123.131317,2023-12-17T22:12:48.706000Z,14,6,0,6,7
1,Vancouver,CA,e7bf01431a6982f032996ad50a9e5bd7,Pender & Gore,49.280284,-123.097052,2023-12-17T22:12:49.010000Z,14,8,1,7,6
1,Vancouver,CA,1648ead5ea617d2cea115869d9516f5e,Carrall & Seawall,49.276294,-123.106534,2023-12-17T22:12:49.378000Z,18,11,0,11,7
1,Vancouver,CA,91035fe1d70b65c9cb8ec4a007af7c7f,Glen & Union,49.277469,-123.081315,2023-12-17T22:12:49.240000Z,14,5,0,5,9
1,Vancouver,CA,d3aaff4414a8c3fd5480c470f77ff68a,Adanac & McLean,49.277665,-123.073653,2023-12-17T22:12:48.657000Z,22,11,1,10,11
1,Vancouver,CA,b307709b305dd04328fbbf2c6db86419,Commercial & Adanac,49.277436,-123.070427,2023-12-17T22:12:49.268000Z,16,4,4,0,12
1,Vancouver,CA,e9c4bd1fffbb1e5b058b8ea15f7307f6,Pender & Commercial,49.280332,-123.070068,2023-12-17T22:12:49.294000Z,16,13,0,13,3
1,Vancouver,CA,bb0847559ce71c93d8215c0997ea2811,Keefer & Princess,49.279369,-123.091241,2023-12-17T22:12:49.132000Z,14,7,0,7,7
1,Vancouver,CA,1ef5c4ff3f0b09422bb1597fd9d7568b,Alexander & Railway,49.283992,-123.091206,2023-12-17T22:12:48.673000Z,20,4,1,3,16
1,Vancouver,CA,ac3b8198f03754a0afb8b6ed6d220cdd,Napier & Commercial,49.274881,-123.069323,2023-12-17T22:12:48.437000Z,14,3,0,3,11
1,Vancouver,CA,029a505bd4422a1afd127987757f71a6,Britannia Parking Lot,49.275882,-123.071865,2023-12-17T22:12:48.430000Z,14,6,2,4,8
1,Vancouver,CA,0459b7e93703980b853cd65a9dc60596,Thornton & National,49.273777,-123.092723,2023-12-17T22:12:48.486000Z,14,9,0,9,5
1,Vancouver,CA,a21f40838346e300063bdda3c5c04105,Keith & 6th,49.265005,-123.079481,2023-12-17T22:12:48.895000Z,28,21,0,21,6
1,Vancouver,CA,6b1622540fe5c85d365754dd8c20bf0c,Grant & Commercial,49.271377,-123.069416,2023-12-17T22:12:49.016000Z,14,2,0,2,12
1,Vancouver,CA,ebc551adb0fc1a684f4080e4954a9ba4,2nd & Commercial,49.268616,-123.069908,2023-12-17T22:12:48.997000Z,22,3,3,0,19
1,Vancouver,CA,6eaa02e5bcf78db5386683d38fa2dabd,4th & Commercial,49.266969,-123.069936,2023-12-17T22:12:48.999000Z,14,1,0,1,13
1,Vancouver,CA,983e58671adcc67af94457d7887dbb15,8th & Commercial,49.263242,-123.070521,2023-12-17T22:12:48.644000Z,20,6,0,6,13
1,Vancouver,CA,797ff1725f8d2b18337de51e240ff60d,10th & Commercial,49.261403,-123.070102,2023-12-17T22:12:49.008000Z,26,9,0,9,16
1,Vancouver,CA,277b4b4881bdb7dac73012672179def8,Woodland & 10th,49.261263,-123.073707,2023-12-17T22:12:48.878000Z,14,5,0,5,9
1,Vancouver,CA,e1ff428dadc7c32141b9d89a7b56728a,Glen & Broadway,49.262242,-123.081459,2023-12-17T22:12:48.871000Z,18,6,1,5,12
1,Vancouver,CA,012d3e06901cc222b1c2cf0a2ace3a29,St George & Broadway,49.262321,-123.09306,2023-12-17T22:12:48.539000Z,14,4,0,4,10
1,Vancouver,CA,a6455af6b689bcbad07ae2c8a3419b50,7th & Woodland,49.264251,-123.073853,2023-12-17T22:12:48.881000Z,12,11,0,11,1
1,Vancouver,CA,475627e149c1a6ba73caac8d8d2fa617,Woodland & 4th,49.266751,-123.073501,2023-12-17T22:12:48.893000Z,14,8,0,8,6
1,Vancouver,CA,f387ec226c432c5c054e3d3616d90501,Woodland & Graveley,49.270684,-123.073562,2023-12-17T22:12:48.998000Z,12,4,0,4,8
1,Vancouver,CA,1675a77b9af656faf527b4e6de53e63b,Charles & Woodland,49.2731,-123.0732,2023-12-17T22:12:48.894000Z,14,0,0,0,14
1,Vancouver,CA,1bca0e944a4faf170db82793414b03ab,18th & Main,49.254667,-123.101389,2023-12-17T22:12:48.981000Z,16,3,2,1,13
1,Vancouver,CA,d0782213f003ce9eb276fbceff44f1f4,Prince Edward & 16th,49.256694,-123.096579,2023-12-17T22:12:48.992000Z,14,0,0,0,14
1,Vancouver,CA,1ef01f2f89621d51afbabaa6296e55be,Prince Edward & 14th,49.258352,-123.096337,2023-12-17T22:12:48.985000Z,14,8,0,8,6
1,Vancouver,CA,c47a1f62ea461ce1c9f3e2478c657df6,13th & St George,49.258817,-123.092797,2023-12-17T22:12:48.745000Z,16,0,0,0,16
1,Vancouver,CA,0cee06d7d10f7d3162cea03d22b7beed,10th & Fraser,49.26151,-123.089413,2023-12-17T22:12:48.556000Z,14,1,1,0,13
1,Vancouver,CA,f62bc2bfe9a0a563d5b6745ce6d962ba,8th & Fraser,49.263382,-123.088837,2023-12-17T22:12:48.558000Z,16,4,2,2,12
1,Vancouver,CA,1c8f7fd6535db12cc45cfc59aa9da058,St Catherines & 10th,49.261353,-123.085333,2023-12-17T22:12:48.674000Z,12,1,1,0,11
1,Vancouver,CA,17a3320a52bcc62161908967f8a06613,St Catherines & 7th,49.264466,-123.085183,2023-12-17T22:12:48.675000Z,20,7,2,5,13
1,Vancouver,CA,aed214941445e0345aa3254805a9e8b8,Pender & Victoria,49.280197,-123.065859,2023-12-17T22:12:48.730000Z,16,7,2,5,9
1,Vancouver,CA,d67640af1b3b3b3ce47169dbc9182470,Victoria & 4th,49.266725,-123.065925,2023-12-17T22:12:48.729000Z,16,1,0,1,15
1,Vancouver,CA,b2c6aaf2b4fa8937bfe3941c038683aa,Victoria & 10th,49.261188,-123.066009,2023-12-17T22:12:48.728000Z,12,4,1,3,8
1,Vancouver,CA,0a43242bee10cd33f539af2c1bf5ecbf,15th & Victoria (Trout Lake),49.256857,-123.065646,2023-12-17T22:12:48.481000Z,18,8,2,6,10
1,Vancouver,CA,198810b9b0af5d229d1b6fa12c620e06,Triumph & Victoria,49.283986,-123.065264,2023-12-17T22:12:48.588000Z,18,6,1,5,12
1,Vancouver,CA,d02e2eaafda91425eddd24d8acd328ab,Windsor & 14th,49.257985,-123.083366,2023-12-17T22:12:48.590000Z,14,3,0,3,10
1,Vancouver,CA,08c7a90bf297fde8c1f1156db13987d4,14th & Fraser,49.257939,-123.089531,2023-12-17T22:12:48.572000Z,16,2,0,2,14
1,Vancouver,CA,97005696a3dff3366a8410b817388990,15th & Knight,49.256496,-123.075426,2023-12-17T22:12:48.585000Z,14,13,0,13,1
1,Vancouver,CA,c52e51e3288a00993bdf892fdc2c2c2c,Commercial & Pandora,49.283236,-123.070443,2023-12-17T22:12:48.571000Z,16,16,1,15,0
1,Vancouver,CA,7d231a181d21056e4ba80c4d9939fe92,Carolina & Great Northern Way,49.267266,-123.090786,2023-12-17T22:12:48.562000Z,16,2,1,1,14
1,Vancouver,CA,dcf3d5c9f1b3a46f0ef2eb2247931f89,6th & Prince Edward,49.265242,-123.095577,2023-12-17T22:12:48.705000Z,16,0,0,0,16
1,Vancouver,CA,9bee3167f10c884044cea0d36afcd1ef,6th & Carolina,49.265213,-123.090785,2023-12-17T22:12:48.696000Z,16,3,1,2,13
1,Vancouver,CA,45a4c865db23e1cad0209afa5a799de0,Stanley Park - Third Beach Parking Lot,49.302577,-123.155616,2023-12-17T22:12:48.690000Z,38,15,0,15,23
1,Vancouver,CA,fe0c57d04d6e682d284d501446095fc9,Union & Dunlevy,49.277595,-123.09583,2023-12-17T22:12:49.020000Z,16,10,2,8,6
1,Vancouver,CA,b10d422b045805f1c350c47c983381e8,Keefer & Hawks,49.279235,-123.087528,2023-12-17T22:12:49.116000Z,16,11,0,11,5
1,Vancouver,CA,4e8fdc99e77ba1b70d90e124a704d0c1,Hawks & Union,49.277333,-123.087359,2023-12-17T22:12:49.377000Z,16,8,0,8,8
1,Vancouver,CA,b562f08327af465e4531e20226789489,Charles & Commercial,49.273103,-123.069892,2023-12-17T22:12:48.393000Z,22,1,1,0,21
1,Vancouver,CA,4ac99b928a91d8ccb785c9d0b805adb6,10th & Kingsway,49.261973,-123.09725,2023-12-17T22:12:48.756000Z,20,1,0,1,19
1,Vancouver,CA,99c81f71db35911c79a86a1c5edc5604,Beach & Hornby,49.275295,-123.132585,2023-12-17T22:12:48.472000Z,22,18,5,13,4
1,Vancouver,CA,e12234b6f1299d178f34bffaca92f043,Burrard Station (Melville & Dunsmuir),49.285871,-123.12105,2023-12-17T22:12:48.877000Z,28,22,7,15,6
1,Vancouver,CA,5a34495280727a5b50b9aa41e14e9a16,Bute & Barclay,49.284893,-123.128685,2023-12-17T22:12:48.439000Z,14,6,0,6,7
1,Vancouver,CA,9130f9aa3bb037a04c17e6f2630327e5,8th & Yukon,49.263962,-123.112621,2023-12-17T22:12:48.730000Z,22,13,3,10,9
1,Vancouver,CA,9a48ca226f82f52d02707b054ebc7e9e,Princess & Union,49.277615,-123.091654,2023-12-17T22:12:48.711000Z,12,7,0,7,5
1,Vancouver,CA,b3bb9f58d3530d33a1a09b6be9e973e0,Dunsmuir & Richards,49.282214,-123.114101,2023-12-17T22:12:48.970000Z,22,10,0,10,12
1,Vancouver,CA,c2f4e05c01ea0d27934ac7dbc50cbd0c,5th & Main,49.266456,-123.100324,2023-12-17T22:12:48.708000Z,20,11,2,9,9
1,Vancouver,CA,9a5478470b56379c31cf4e671584d5cc,3rd & Quebec,49.268216,-123.103168,2023-12-17T22:12:48.693000Z,20,16,0,16,5
1,Vancouver,CA,257715b845828e027ff35dd0f11c971e,Richards & Cordova,49.284554,-123.111031,2023-12-17T22:12:48.451000Z,16,5,2,3,10
1,Vancouver,CA,910027847876403b57f1013c16504688,Richards & Robson,49.280216,-123.117639,2023-12-17T22:12:48.473000Z,20,8,0,8,12
1,Vancouver,CA,06487275cd19694152824c7c3088e8ff,Olympic Village Station,49.266314,-123.116011,2023-12-17T22:12:48.866000Z,26,23,1,22,3
1,Vancouver,CA,b428c0e64d9b9fdb3bf8e85c95ffdf6b,Campbell & Hastings,49.280852,-123.084746,2023-12-17T22:12:48.694000Z,14,5,0,5,9
1,Vancouver,CA,d085c6749a32517e1fb0d070e4128402,Cardero & Davie,49.285512,-123.1384,2023-12-17T22:12:48.460000Z,19,13,1,12,5
1,Vancouver,CA,a6aec7b8c25da4c02829cd7839b8933d,Aquatic Centre,49.27821,-123.136972,2023-12-17T22:12:49.096000Z,40,29,11,18,11
1,Vancouver,CA,c924f6a41b130fad49cfae47271314bc,Beach & Broughton,49.281301,-123.139108,2023-12-17T22:12:49.023000Z,22,14,2,12,8
1,Vancouver,CA,8e93d0da1ee6caadf21ed9575b5fa9da,Beach & Cardero,49.283298,-123.142288,2023-12-17T22:12:48.416000Z,22,14,2,12,8
1,Vancouver,CA,9413725a5d3bb5ce2ad0682b07a3ffab,Georgia & Homer,49.280787,-123.115271,2023-12-17T22:12:48.434000Z,18,8,0,8,10
1,Vancouver,CA,7ed043a19e6a4ece742fe747b663bdbf,Columbia & 5th,49.266476,-123.109389,2023-12-17T22:12:48.892000Z,18,15,1,14,3
1,Vancouver,CA,ce5dccf5a0f190bb4567a2fd93e7971e,Haro & Denman,49.290587,-123.13625,2023-12-17T22:12:48.453000Z,20,14,0,14,6
1,Vancouver,CA,1d442ad1a71774c82688a45954e47bfd,Arbutus & 10th,49.262835,-123.152626,2023-12-17T22:12:48.936000Z,18,3,1,2,15
1,Vancouver,CA,2781435bde344e1b64f1bebac6bc9008,Ontario & 16th,49.256825,-123.105234,2023-12-17T22:12:48.366000Z,14,1,1,0,12
1,Vancouver,CA,e9b37f2d9b7b2e2e3ade73f13acb69b2,Richards & Davie,49.275683,-123.124388,2023-12-17T22:12:49.076000Z,14,9,5,4,5
1,Vancouver,CA,fffd87607aaae16fbb1f71615cbe7d17,8th & Prince Edward,49.263518,-123.09568,2023-12-17T22:12:48.677000Z,18,2,0,2,16
1,Vancouver,CA,da8b6e94f90ad41a3f8de10596992372,Jervis & Robson,49.28691,-123.128818,2023-12-17T22:12:49.391000Z,20,12,7,5,7
1,Vancouver,CA,32f70f7ae14ba87523c6286a6c4d5c37,Smithe & Burrard,49.282503,-123.124697,2023-12-17T22:12:48.712000Z,18,6,6,0,11
1,Vancouver,CA,df5ab349a7a85d4b10da4cc3ec65c607,Broughton & Davie,49.283749,-123.136133,2023-12-17T22:12:49.028000Z,22,14,13,1,6
1,Vancouver,CA,e0318460138ffbf4692005d5b5a9f900,Cypress & 10th,49.262944,-123.148109,2023-12-17T22:12:48.863000Z,14,1,1,0,13
1,Vancouver,CA,db51c556fe50ec1deefbc9697c70cb51,Granville Island,49.27029,-123.135025,2023-12-17T22:12:48.768000Z,32,19,8,11,12
1,Vancouver,CA,58a026f0c506caec20697a4f90538450,McLean & Pender,49.280427,-123.074082,2023-12-17T22:12:49.312000Z,16,9,0,9,7
1,Vancouver,CA,0e0aef6fabaa808b3a3cef24657257a4,Richards & Smithe,49.279259,-123.119145,2023-12-17T22:12:48.517000Z,18,5,1,4,13
1,Vancouver,CA,90c746df94ce1a12f1f617acfe4a8ce3,Bute & Robson,49.285836,-123.127265,2023-12-17T22:12:48.379000Z,26,13,1,12,13
1,Vancouver,CA,80b5c12ef21fd47275d37b2c9935249c,Trafalgar & Cornwall,49.272969,-123.164325,2023-12-17T22:12:48.861000Z,20,5,2,3,15
1,Vancouver,CA,899f59a9994302e8e1e4be01117ef707,Alma & Point Grey,49.27247,-123.185643,2023-12-17T22:12:49.388000Z,24,9,3,6,14
1,Vancouver,CA,8d2d5bb3b9142f781f2a7f441e6bad7a,Point Grey & Blenheim,49.271471,-123.17731,2023-12-17T22:12:48.645000Z,14,10,1,9,4
1,Vancouver,CA,5de0fe55497681d4cc9dd25509cf51ab,Hastings & Broughton,49.290112,-123.127062,2023-12-17T22:12:48.366000Z,24,19,3,16,5
1,Vancouver,CA,2681455ba2d97283998a806b14d3e95c,Yew & Broadway,49.263523,-123.155267,2023-12-17T22:12:49.387000Z,18,4,2,2,13
1,Vancouver,CA,064a7b39b1dbc4bfc4cf8f454e360c57,8th & Macdonald,49.264928,-123.168068,2023-12-17T22:12:48.692000Z,22,18,0,18,4
1,Vancouver,CA,9c1397c06e07bf74fc049f1a0872eea0,Balaclava & Broadway,49.264483,-123.173926,2023-12-17T22:12:48.635000Z,18,8,1,7,9
1,Vancouver,CA,9763838317308a4766b83696986a157b,Dunbar & Broadway,49.264579,-123.18373,2023-12-17T22:12:49.389000Z,26,10,3,7,16
1,Vancouver,CA,c64ee19c62a363019ddbaedf71df2882,Grandview & Commercial,49.263746,-123.069892,2023-12-17T22:12:48.984000Z,16,9,1,8,7
1,Vancouver,CA,421516af381a11f54d07fc79be68d3d3,14th & Oak,49.258761,-123.127071,2023-12-17T22:12:48.615000Z,14,4,4,0,10
1,Vancouver,CA,38f045e3f43f86eae42ca4c60257ade0,Wallace & 4th,49.268974,-123.190701,2023-12-17T22:12:49.005000Z,18,10,1,9,8
1,Vancouver,CA,5ba6e9725b1b0ee8cd25df976e47726b,Balsam & Cornwall,49.273011,-123.159663,2023-12-17T22:12:48.908000Z,20,17,5,12,3
1,Vancouver,CA,f90ed7ad754ec04b7852941a480a4c77,Balaclava & 6th,49.266924,-123.173849,2023-12-17T22:12:48.508000Z,16,15,2,13,1
1,Vancouver,CA,abfaf72456a4828a22f5bf60d3a80777,Trafalgar & Broadway,49.264326,-123.164725,2023-12-17T22:12:48.360000Z,16,9,1,8,5
1,Vancouver,CA,2ff7eb4230654603592ab1b0780ec5e1,Dunbar & 6th,49.266636,-123.183661,2023-12-17T22:12:49.390000Z,16,10,3,7,5
1,Vancouver,CA,ea9485fcdce0611243474d000e4ad248,18th & Cambie,49.254818,-123.114785,2023-12-17T22:12:48.483000Z,24,4,1,3,20
1,Vancouver,CA,671ce9e4a92063620f772d2c57f0f3ab,Blenheim & 4th,49.268837,-123.177633,2023-12-17T22:12:48.487000Z,23,11,2,9,12
1,Vancouver,CA,41a55a7e2908fbbd65175b794d26bc8d,18th & Heather,49.255034,-123.120226,2023-12-17T22:12:48.706000Z,16,1,1,0,15
1,Vancouver,CA,a59924f0ff3fb481a7bd8a5e9c36858f,Point Grey & Bayswater,49.271044,-123.170661,2023-12-17T22:12:48.724000Z,16,4,3,1,12
1,Vancouver,CA,89a0b49a66e54a7639ad960962148a3e,20th & Main,49.252691,-123.101289,2023-12-17T22:12:48.506000Z,16,0,0,0,15
1,Vancouver,CA,44fc3d58831a9f2b919c7a3a1838b74a,Station & Terminal,49.272172,-123.097978,2023-12-17T22:12:48.697000Z,18,13,2,11,5
1,Vancouver,CA,d40db8c27c5bd409d57cfa846f73c378,Jericho Beach,49.271082,-123.191458,2023-12-17T22:12:49.004000Z,34,15,4,11,17
1,Vancouver,CA,4990fe5772f3b73eebeec125b41e478e,Burrard & Drake,49.27808,-123.130557,2023-12-17T22:12:49.022000Z,24,2,1,1,21
1,Vancouver,CA,bf96df77771ef0ed710d8e0e67917f45,Columbia & 1st,49.269969,-123.109623,2023-12-17T22:12:48.742000Z,24,13,1,12,10
1,Vancouver,CA,e75e83499d3fa2e174dc2a8ffd238119,Davie & Beach,49.287528,-123.142139,2023-12-17T22:12:49.256000Z,30,16,8,8,14
1,Vancouver,CA,0438114d2e6b96118de69bc9775bb21e,Morton & Denman,49.28803,-123.142135,2023-12-17T22:12:48.381000Z,26,13,6,7,13
1,Vancouver,CA,07b13214cb69f2ec007d888450f3d6bc,13th & Cambie,49.259579,-123.114769,2023-12-17T22:12:49.398000Z,14,8,5,3,6
1,Vancouver,CA,f5e8fa1fc4252bda2f93dd27ed2d603f,Nelson & Denman,49.2890705989865,-123.138407369468,2023-12-17T22:12:49.408000Z,18,10,5,5,7
1,Vancouver,CA,c2a9c5d0e4578b928554c86f3d2c1162,Melville & Bute,49.287782,-123.12395,2023-12-17T22:12:48.720000Z,14,3,0,3,11
1,Vancouver,CA,5f45325fdd6334a4c0d3b62853b19fa6,Seymour & Cordova,49.28512,-123.11242,2023-12-17T22:12:48.704000Z,19,4,0,4,15
1,Vancouver,CA,085a0e120a08a80a58c0ae0ff9da565a,Arbutus & Nanton,49.247854,-123.153422,2023-12-17T22:12:48.879000Z,18,10,4,6,6
1,Vancouver,CA,8d5f47f01d7ad668419dfe9b7fe69c9a,Yukon & 6th,49.265939,-123.1129,2023-12-17T22:12:48.731000Z,18,15,1,14,3
1,Vancouver,CA,bede4b24dae115d4cd43d2e6cc9812cb,11th & Kingsway,49.261122,-123.097571,2023-12-17T22:12:48.725000Z,16,7,6,1,8
1,Vancouver,CA,680b1ddfd50c4397b365c9c00f09b0d1,Wylie & 2nd,49.267725,-123.11311,2023-12-17T22:12:48.418000Z,18,15,2,13,3
1,Vancouver,CA,b26f83e904f3a778466ebcd763b7316a,29th & Cambie,49.245135,-123.116098,2023-12-17T22:12:48.559000Z,20,5,0,5,15
1,Vancouver,CA,6620c54bd6b3a79800b2b67e999b24d0,Rolston & Granville,49.274232,-123.129998,2023-12-17T22:12:49.406000Z,16,3,1,2,12
1,Vancouver,CA,7f091b50fbbd892bf9fb869a64c47120,East Blvd & 37th,49.238105,-123.154966,2023-12-17T22:12:48.949000Z,20,1,0,1,18
1,Vancouver,CA,57d39a680c9407cda0fb4de6d9c55138,28th & Willow,49.246243,-123.124373,2023-12-17T22:12:48.436000Z,20,9,2,7,9
1,Vancouver,CA,97388f4e4ea102a30345524bda465f4e,Ontario & 23rd,49.249722,-123.104991,2023-12-17T22:12:49.411000Z,12,2,2,0,10
1,Vancouver,CA,066ecc3584913fa035ec1417323beb80,30th & Ontario,49.243375,-123.104978,2023-12-17T22:12:49.004000Z,22,5,4,1,17
1,Vancouver,CA,b530d04d393d71cffb8b8b07f4a82380,Franklin & Nanaimo,49.282087,-123.056909,2023-12-17T22:12:48.897000Z,20,0,0,0,20
1,Vancouver,CA,06bdc4d55f34b2a491305534fd5defda,Lakewood & Triumph,49.283968,-123.061615,2023-12-17T22:12:48.862000Z,16,4,0,4,12
1,Vancouver,CA,8e44a17d2fa446ca220b90c7063b42ca,Wall & Eton,49.287464,-123.060771,2023-12-17T22:12:48.492000Z,18,10,0,10,8
1,Vancouver,CA,7c17f51469f1a7145455f65ef6afbd87,Lakewood & Oxford,49.285575,-123.061575,2023-12-17T22:12:48.695000Z,18,2,0,2,15
1,Vancouver,CA,e1432b72df561a1df34290679ec9c773,22nd & Cambie,49.251358,-123.115637,2023-12-17T22:12:48.484000Z,14,1,1,0,13
1,Vancouver,CA,549f00f6039e8bb702a00dcca08a8ed0,King Edward & Cambie,49.249184,-123.116141,2023-12-17T22:12:48.560000Z,18,10,9,1,6
1,Vancouver,CA,d8c4fe5e09b6f010fbaa85cc7302d66b,Heather & 29th,49.245535,-123.120496,2023-12-17T22:12:48.698000Z,22,9,1,8,13
1,Vancouver,CA,0c42f45e4a14957ad4a6d521d0ba8bc3,Cardero & Robson,49.289255,-123.132677,2023-12-17T22:12:48.462000Z,26,24,2,22,2
1,Vancouver,CA,62a202eb98c0a4b09ba6746f5ee94ab3,Commercial & 20th,49.252656,-123.067965,2023-12-17T22:12:48.696000Z,20,2,0,2,18
1,Vancouver,CA,04f64fde5ba1ebde8ad78c74914adb34,Burrard & 14th,49.259469,-123.145718,2023-12-17T22:12:48.707000Z,18,12,9,3,5
1,Vancouver,CA,cc2084e365f6f230fe26bae0b6867775,Hornby & Drake,49.277178,-123.13,2023-12-17T22:12:48.722000Z,24,6,6,0,17
1,Vancouver,CA,f38bac9712f3beee2149ba2a97048878,Cardero & Bayshore,49.291597,-123.129158,2023-12-17T22:12:48.629000Z,20,15,3,12,5
1,Vancouver,CA,9ee3bc9e836768e3e04e4f3328dae03b,27th & Main,49.247204,-123.101549,2023-12-17T22:12:49.024000Z,22,5,5,0,17
1,Vancouver,CA,aa1cbf97abc3cd50515bc54633a9bb2a,Cordova & Granville,49.2856698,-123.1125432,2023-12-17T22:12:49.148000Z,18,2,0,2,16
1,Vancouver,CA,13021bba7bbeca1ccd8726ca17da59e6,22nd & Main,49.25094,-123.101306,2023-12-17T22:12:49.029000Z,14,6,0,6,8
1,Vancouver,CA,5699b40126e10c2f68eefc3eb18ff3a1,1st & Fir,49.270783,-123.141564,2023-12-17T22:12:48.501000Z,20,14,4,10,6
1,Vancouver,CA,34fd37d12eb989b49518ef53941ee3ff,Sasamat & 10th,49.264019,-123.209176,2023-12-17T22:12:48.405000Z,22,9,1,8,13
1,Vancouver,CA,b7dd37a7dd668d6d10024b7f18acc438,Trimble & 8th,49.2658,-123.20596,2023-12-17T22:12:48.493000Z,20,8,2,6,12
1,Vancouver,CA,cc25ae4f093b33ba0afd1dbc0dd20324,Highbury & 8th,49.265442,-123.187738,2023-12-17T22:12:49.006000Z,20,18,4,14,2
1,Vancouver,CA,db1e56a71a3279f51301d732ee5a055b,IK Barber Learning Centre,49.267561,-123.252261,2023-12-17T22:12:49.007000Z,20,14,10,4,7
1,Vancouver,CA,5726de7c5646b82f7aaeafba50aee03e,War Memorial Gym,49.2665793,-123.2485487,2023-12-17T22:12:48.505000Z,28,14,14,0,14
1,Vancouver,CA,cde61c70e5556ee2fe3ceb9d958b6482,Pharmaceutical Sciences,49.26262,-123.2431,2023-12-17T22:12:48.780000Z,24,5,5,0,19
1,Vancouver,CA,852212d6d52b5f00544fad01d21c7db2,Georgia & Main,49.278529,-123.100017,2023-12-17T22:12:48.709000Z,0,0,0,0,0
1,Vancouver,CA,3dae5d936bb6b222d135eff52833e7f4,Bute & Davie,49.282047,-123.133057,2023-12-17T22:12:48.754000Z,20,12,0,12,8
1,Vancouver,CA,10acadd77bc21f26a7f09d8c74d4af2d,Beatty & Robson,49.277773,-123.114237,2023-12-17T22:12:49.176000Z,20,7,0,7,13
